City_ID,City,Lat,Lng,Max Temp,Humidity,Cloudiness,Wind Speed,Country,Date
0,abancay,-13.6339,-72.8814,299.68,22,25,5.13,PE,1727212121
1,lihue,21.9789,-159.3672,301.92,67,40,6.17,US,1727212122
2,morondava,-20.2833,44.2833,297.3,79,0,2.47,MG,1727212123
3,lompoc,34.6391,-120.4579,297.11,70,1,5.66,US,1727211979
4,nova vicosa,-17.8919,-39.3719,297.55,75,0,5.37,BR,1727212126
5,sinop,41.7711,34.8709,287.87,81,2,2.1,TR,1727212127
6,san felipe,10.3399,-68.7425,303.54,54,100,1.61,VE,1727212128
7,rio verde de mato grosso,-18.9181,-54.8442,311.32,15,16,2.57,BR,1727212129
8,kodiak,57.79,-152.4072,283.88,62,100,3.09,US,1727212130
9,howrah,22.5892,88.3103,301.15,89,75,2.57,IN,1727212131
10,yellowknife,62.456,-114.3525,282.27,91,100,4.12,CA,1727211880
11,talnakh,69.4865,88.3972,276.46,84,73,2.47,RU,1727212133
12,cobija,-11.0267,-68.7692,306.67,38,92,0.36,BO,1727212135
13,chui,-33.6971,-53.4616,286.56,96,100,7.19,UY,1727212136
14,wailua homesteads,22.0669,-159.378,301.59,70,40,6.17,US,1727212137
15,tazovsky,67.4667,78.7,276.49,97,100,4.76,RU,1727212138
16,san julian,21.0167,-102.1667,299.1,39,13,3.92,MX,1727212139
17,blackmans bay,-43.0167,147.3167,282.44,63,89,0.45,AU,1727212140
18,college,64.8569,-147.8028,281.18,64,100,0.0,US,1727211974
19,vadso,70.0744,29.7487,283.24,87,40,9.77,NO,1727212142
20,port-aux-francais,-49.35,70.2167,275.6,66,12,13.8,TF,1727212144
21,saipan,15.1355,145.701,301.54,89,100,3.6,MP,1727212145
22,badger,64.8,-147.5333,281.13,70,100,0.89,US,1727212146
23,kristiansund,63.1115,7.732,281.51,71,100,4.12,NO,1727212148
24,punta arenas,-53.15,-70.9167,274.21,86,75,12.35,CL,1727212149
25,bakchar,57.0186,82.0711,274.28,89,38,3.89,RU,1727212151
26,bredasdorp,-34.5322,20.0403,285.41,94,100,1.12,ZA,1727212152
27,kruisfontein,-34.0033,24.7314,289.17,93,88,3.7,ZA,1727212153
28,sinabang,2.4803,96.3801,299.81,83,100,1.05,ID,1727212154
29,pyhajarvi,67.0701,27.2176,283.48,97,100,3.12,FI,1727212155
30,west bay,19.3667,-81.4167,301.19,78,100,8.23,KY,1727212156
31,whitehorse,60.7161,-135.0538,283.04,66,100,8.05,CA,1727212157
32,edinburgh of the seven seas,-37.0676,-12.3116,285.11,76,8,4.02,SH,1727212158
33,puerto natales,-51.7236,-72.4875,276.4,60,75,6.69,CL,1727212160
34,chul'man,56.8479,124.9104,276.21,90,11,1.22,RU,1727212161
35,petropavlovsk-kamchatsky,53.0452,158.6483,282.48,66,0,0.0,RU,1727212162
36,portland,45.5234,-122.6762,305.68,49,10,1.34,US,1727212111
37,alice springs,-23.7,133.8833,289.9,94,75,0.0,AU,1727212164
38,waitangi,-43.9535,-176.5597,281.38,81,18,7.6,NZ,1727212165
39,priargunsk,50.3691,119.1012,279.84,87,0,2.38,RU,1727212166
40,port mathurin,-19.6833,63.4167,295.37,78,15,9.66,MU,1727212168
41,menaka,15.9182,2.4022,307.95,34,52,3.46,ML,1727212169
42,bilibino,68.0546,166.4372,270.71,87,96,1.1,RU,1727212170
43,comodoro rivadavia,-45.8667,-67.5,284.27,26,39,9.92,AR,1727212171
44,bethel,41.3712,-73.414,291.48,71,100,2.06,US,1727212064
45,thompson,55.7435,-97.8558,284.47,95,100,2.62,CA,1727212173
46,midvagur,62.0511,-7.1939,277.61,81,75,6.17,FO,1727212174
47,olonkinbyen,70.9221,-8.7187,274.95,77,32,6.82,SJ,1727212175
48,kavaratti,10.5669,72.642,300.34,84,100,8.43,IN,1727212176
49,wladyslawowo,54.7909,18.4009,289.23,76,100,9.67,PL,1727212178
50,tofol,5.3248,163.0078,301.74,72,12,4.14,FM,1727212179
51,urumqi,43.801,87.6005,290.68,63,0,1.0,CN,1727212180
52,tura,25.5198,90.2201,296.87,99,100,0.62,IN,1727212181
53,keflavik,64.0049,-22.5624,278.39,75,40,7.2,IS,1727212182
54,sola,-13.8833,167.55,298.82,81,36,9.36,VU,1727212183
55,cabedelo,-6.9811,-34.8339,298.52,81,14,6.1,BR,1727212184
56,nagqu,31.5,92.0,273.09,75,78,1.33,CN,1727212185
57,ishigaki,24.3448,124.1572,301.86,74,93,2.72,JP,1727212187
58,kazan,55.7887,49.1221,276.49,54,24,2.19,RU,1727212188
59,zeya,53.75,127.2667,280.45,93,48,0.88,RU,1727212189
60,invercargill,-46.4,168.35,280.94,76,97,3.58,NZ,1727212190
61,utrik,11.2278,169.8474,301.38,76,78,3.25,MH,1727212191
62,cafayate,-26.073,-65.9761,298.89,41,47,6.3,AR,1727212192
63,lorengau,-2.0226,147.2712,300.89,78,99,4.63,PG,1727212193
64,west island,-12.1568,96.8225,299.14,94,75,3.09,CC,1727212194
65,sooke,48.3746,-123.7276,295.48,84,77,0.95,CA,1727212195
66,kalaleh,37.3807,55.4916,295.28,84,4,2.16,IR,1727212197
67,smithers,54.7804,-127.1743,284.25,92,100,0.67,CA,1727212198
68,flin flon,54.7682,-101.865,293.49,51,42,4.82,CA,1727212199
69,saint-memmie,48.9525,4.3841,288.7,88,77,4.67,FR,1727212200
70,vernon,50.2581,-119.2691,301.85,36,100,1.73,CA,1727212201
71,grytviken,-54.2811,-36.5092,272.44,72,63,3.38,GS,1727212202
72,klyuchi,52.2667,79.1667,277.24,69,6,3.1,RU,1727212203
73,al kharj,24.155,47.3346,304.47,16,0,4.11,SA,1727212205
74,kamaishi,39.2667,141.8833,288.2,79,88,2.69,JP,1727212206
75,georgetown,5.4112,100.3354,300.11,74,20,0.0,MY,1727212207
76,mount isa,-20.7333,139.5,290.02,55,3,0.0,AU,1727212208
77,adamstown,-25.066,-130.1015,292.69,70,79,6.66,PN,1727212209
78,linxi,39.7,118.4333,288.72,78,0,1.72,CN,1727212210
79,stanley,54.868,-1.6985,282.19,89,75,3.6,GB,1727212211
80,iqaluit,63.7506,-68.5145,280.76,75,22,4.92,CA,1727212213
81,roxas,11.5853,122.7511,299.5,89,100,2.54,PH,1727212214
82,lichuan,30.3,108.85,288.6,85,86,0.77,CN,1727212215
83,jertih,5.7336,102.4897,297.14,93,56,1.33,MY,1727212216
84,jianguang,28.1938,115.7836,292.96,86,5,0.84,CN,1727212218
85,ipilan,8.8431,117.9033,299.02,88,76,1.25,PH,1727212221
86,tapes,-30.6733,-51.3958,292.41,93,67,4.93,BR,1727212222
87,carutapera,-1.195,-46.02,299.15,78,35,5.42,BR,1727212223
88,palmer,42.1584,-72.3287,291.77,59,75,3.09,US,1727212225
89,humberto de campos,-2.5983,-43.4611,298.6,76,5,2.89,BR,1727212226
90,cabo san lucas,22.8909,-109.9124,307.32,46,0,5.14,MX,1727212227
91,saudarkrokur,65.7461,-19.6394,274.83,92,100,9.29,IS,1727212228
92,san luis de la loma,17.2706,-100.8939,300.39,77,100,1.52,MX,1727212229
93,pisco,-13.7,-76.2167,293.18,68,0,4.63,PE,1727212230
94,constantia,44.1833,28.65,289.65,76,19,3.32,RO,1727212231
95,coquimbo,-29.9533,-71.3436,290.0,61,0,5.66,CL,1727212232
96,sagalo,12.2007,-10.6996,295.25,95,100,1.51,ML,1727212234
97,ushuaia,-54.8,-68.3,271.96,86,100,9.77,AR,1727212235
98,narasaraopet,16.25,80.0667,298.49,88,100,1.28,IN,1727212236
99,labrador city,52.9463,-66.9114,283.78,66,100,2.12,CA,1727212237
100,twon-brass,4.3151,6.2418,299.4,78,94,1.54,NG,1727212238
101,puerto ayora,-0.7393,-90.3518,293.46,93,96,2.68,EC,1727212239
102,hastings,50.8552,0.5729,288.01,33,99,5.67,GB,1727212240
103,hilo,19.7297,-155.09,301.53,73,20,2.68,US,1727212241
104,daru,-9.0763,143.2092,298.72,87,99,6.4,PG,1727212243
105,pontianak,-0.0333,109.3333,298.14,100,100,1.03,ID,1727212244
106,jwaneng,-24.6004,24.7303,294.57,42,88,2.9,BW,1727212245
107,haiku-pauwela,20.9219,-156.3051,302.18,69,19,12.52,US,1727212247
108,luderitz,-26.6481,15.1594,286.87,80,4,2.03,NA,1727212248
109,varberg,57.1056,12.2508,288.11,92,100,4.81,SE,1727212249
110,fale old settlement,-9.3852,-171.2468,301.52,78,23,5.19,TK,1727212251
111,uturoa,-16.7333,-151.4333,299.55,76,85,4.15,PF,1727212252
112,quellon,-43.1167,-73.6167,281.24,62,72,5.32,CL,1727212253
113,ust-nera,64.5667,143.2,270.82,83,100,3.75,RU,1727212254
114,yacimiento rio turbio,-51.5732,-72.3508,272.81,60,75,6.69,AR,1727212255
115,arteche,12.2645,125.4048,299.61,89,100,1.42,PH,1727212256
116,sosnovka,56.255,51.2842,277.98,63,74,1.31,RU,1727212257
117,dryden,49.7833,-92.7503,290.61,53,95,3.11,CA,1727212259
118,pacific grove,36.6177,-121.9166,297.21,82,0,2.68,US,1727212260
119,labasa,-16.4167,179.3833,297.99,75,96,3.64,FJ,1727212261
120,hasaki,35.7333,140.8333,296.78,59,100,8.64,JP,1727212262
121,port augusta,-32.5,137.7667,286.38,93,55,4.06,AU,1727212264
122,xilin hot,43.9667,116.0333,279.74,93,14,1.93,CN,1727212266
123,sibut,5.718,19.0739,294.62,96,25,0.4,CF,1727212267
124,ketchikan,55.3422,-131.6461,286.67,84,100,1.95,US,1727212268
125,ilulissat,69.2167,-51.1,279.16,65,96,0.0,GL,1727212269
126,harstad,68.799,16.5293,279.35,94,86,7.15,NO,1727212270
127,katabu,-4.9333,122.5167,296.69,96,21,1.75,ID,1727212271
128,vilyuysk,63.7553,121.6247,279.96,91,100,3.42,RU,1727212272
129,argo,37.6333,22.7333,294.73,64,0,0.6,GR,1727212273
130,laborde,-33.1532,-62.8566,298.72,36,10,5.46,AR,1727212275
131,togur,58.3631,82.8265,275.46,97,100,4.23,RU,1727212276
132,san antonio de pale,-1.4014,5.6325,297.98,82,44,4.81,GQ,1727212277
133,nar'yan-mar,67.6713,53.087,272.33,77,13,2.59,RU,1727212278
134,port lincoln,-34.7333,135.8667,285.95,94,87,3.11,AU,1727212279
135,jianshui,23.6363,102.8264,290.83,95,70,1.59,CN,1727212280
136,remire-montjoly,4.9167,-52.2667,303.17,70,0,5.14,GF,1727212281
137,east london,-33.0153,27.9116,293.5,76,58,7.11,ZA,1727212283
138,colonia,50.9333,6.95,289.23,88,75,3.6,DE,1727212284
139,salinopolis,-0.6136,-47.3561,299.8,82,32,6.66,BR,1727212285
140,sitka,57.0531,-135.33,286.09,71,75,3.6,US,1727212286
141,fuerte olimpo,-21.0415,-57.8738,315.56,12,33,3.13,PY,1727212287
142,yerofey pavlovich,53.9667,121.9667,277.8,89,0,0.96,RU,1727212288
143,honefoss,60.168,10.2565,284.6,98,100,1.19,NO,1727212289
144,hohhot,40.8106,111.6522,286.03,72,65,2.31,CN,1727212290
145,belle fourche,44.6714,-103.8522,299.86,27,0,6.56,US,1727212292
146,albany,42.6001,-73.9662,292.29,61,53,0.89,US,1727212293
147,holualoa,19.6228,-155.9522,300.68,68,20,5.14,US,1727212294
148,vila franca do campo,37.7167,-25.4333,297.38,89,76,5.86,PT,1727212295
149,santo antonio,-6.3106,-35.4789,297.24,67,3,6.94,BR,1727212296
150,jackson,42.4165,-122.8345,308.16,26,0,2.57,US,1727212297
151,hayden,47.766,-116.7866,301.43,37,0,0.89,US,1727212253
152,ingeniero jacobacci,-41.3427,-69.5448,281.66,38,53,12.21,AR,1727212301
153,torghay,49.6339,63.4981,281.16,41,100,3.96,KZ,1727212302
154,lebu,-37.6167,-73.65,284.3,68,8,2.94,CL,1727212303
155,avarua,-21.2078,-159.775,298.18,88,75,4.12,CK,1727212304
156,waingapu,-9.6567,120.2641,299.29,84,7,1.64,ID,1727212305
157,kingsford,-33.924,151.2275,293.79,57,100,4.0,AU,1727212306
158,port elizabeth,-33.918,25.5701,290.55,96,100,4.02,ZA,1727212307
159,caluula,11.9661,50.7569,301.77,69,3,2.33,SO,1727212308
160,taipei,25.0478,121.5319,299.84,59,100,0.89,TW,1727212109
161,cavelossim,15.1726,73.9419,298.7,92,100,4.7,IN,1727212311
162,presidente olegario,-18.4178,-46.4181,302.18,22,34,3.13,BR,1727212312
163,rio grande,-32.035,-52.0986,291.9,95,100,4.12,BR,1727212313
164,kabo,7.6994,18.629,293.96,96,46,0.58,CF,1727212314
165,sidney,-33.8679,151.2073,293.55,57,100,3.2,AU,1727212176
166,nemuro,43.3236,145.575,286.65,74,14,4.78,JP,1727212316
167,barhiya,25.2833,86.0333,301.42,76,97,2.79,IN,1727212317
168,wankyi,7.7392,-2.1046,296.27,88,69,1.05,GH,1727212318
169,igrim,63.1906,64.4162,274.75,63,18,5.91,RU,1727212320
170,margaret river,-33.95,115.0667,279.17,82,5,3.75,AU,1727212107
171,geraldton,-28.7667,114.6,282.38,100,0,3.09,AU,1727212322
172,selfoss,63.9331,-20.9971,276.51,72,41,6.81,IS,1727212323
173,shar,49.5886,81.0453,279.53,36,15,1.44,KZ,1727212324
174,sechura,-5.5569,-80.8222,297.64,59,15,7.15,PE,1727212325
175,hawaiian paradise park,19.5933,-154.9731,301.41,72,20,1.54,US,1727212326
176,broken hill,-31.95,141.4333,289.64,78,100,3.47,AU,1727212327
177,santa terezinha,-29.9002,-50.0904,291.67,95,40,5.48,BR,1727212329
178,alvand,36.3187,49.1678,285.81,74,13,3.09,IR,1727212330
179,usogorsk,63.4106,48.6872,275.18,76,50,1.56,RU,1727212331
180,san pedro pochutla,15.7333,-96.4667,296.32,98,100,1.14,MX,1727212332
181,cruz alta,-28.6386,-53.6064,301.61,62,10,0.38,BR,1727212264
182,tsiombe,-25.3,45.4833,293.39,88,48,5.13,MG,1727212336
183,soni,-4.85,38.3667,288.65,88,75,1.09,TZ,1727212337
184,kendari,-3.945,122.4989,297.08,96,51,0.47,ID,1727212338
185,crane,31.3974,-102.3501,305.09,33,1,3.6,US,1727212339
186,el nido,11.1858,119.3956,299.34,94,96,1.34,PH,1727212340
187,friedrichroda,50.8575,10.5651,286.11,89,100,5.41,DE,1727212341
188,alofi,-19.0595,-169.9187,296.09,88,100,4.12,NU,1727212343
189,mangai,-4.05,19.5333,296.12,79,68,1.31,CD,1727212344
190,chimbote,-9.0853,-78.5783,292.14,80,59,4.89,PE,1727212345
191,termas de rio hondo,-27.4998,-64.8604,299.54,38,6,3.71,AR,1727212346
192,vorgashor,67.5833,63.95,273.16,89,99,11.37,RU,1727212347
193,kiunga,-6.1219,141.2906,295.86,100,99,0.59,PG,1727212348
194,carnarvon,-24.8667,113.6333,291.04,62,0,8.11,AU,1727212349
195,toliara,-23.35,43.6667,297.81,67,86,1.99,MG,1727212350
196,tabou,4.423,-7.3528,297.8,91,91,4.2,CI,1727212352
197,mahina,-17.5065,-149.489,302.02,74,20,5.14,PF,1727212353
198,bykhaw,53.5193,30.2469,288.2,46,68,4.38,BY,1727212354
199,jamestown,42.097,-79.2353,289.83,92,100,7.15,US,1727212355
200,kenai,60.5544,-151.2583,283.23,84,100,2.57,US,1727212267
201,hamilton,39.1834,-84.5333,297.18,84,40,4.12,US,1727212357
202,lazaro cardenas,17.9583,-102.2,300.84,80,100,2.28,MX,1727212358
203,san patricio,28.017,-97.5169,300.12,51,84,6.0,US,1727212359
204,qarauyl,48.9451,79.255,279.69,49,32,1.81,KZ,1727212362
205,cartagena del chaira,1.3349,-74.8429,308.01,35,66,0.62,CO,1727212363
206,iwanai,42.9744,140.5089,283.96,93,83,3.54,JP,1727212364
207,rajaori,33.3833,74.3,294.65,59,0,2.05,IN,1727212365
208,iskateley,67.6803,53.1512,272.3,77,15,2.51,RU,1727212367
209,mount pearl,47.5166,-52.7813,283.79,91,100,2.68,CA,1727212368
210,east ballina,-28.8667,153.5833,290.82,76,85,4.4,AU,1727212369
211,flying fish cove,-10.4217,105.6791,297.97,94,75,2.57,CX,1727212370
212,hermanus,-34.4187,19.2345,284.15,88,100,2.88,ZA,1727212371
213,luuq,3.7938,42.5445,299.66,52,6,9.78,SO,1727212372
214,nouadhibou,20.931,-17.0347,301.14,54,24,6.69,MR,1727212373
215,buncrana,55.1333,-7.45,283.02,55,96,5.8,IE,1727212374
216,kudahuvadhoo,2.6708,72.8944,301.69,76,9,8.04,MV,1727212376
217,palikir - national government center,6.9248,158.1611,297.56,94,100,1.54,FM,1727212377
218,kuanda,56.3161,116.0806,279.43,74,12,1.44,RU,1727212378
219,puerto aysen,-45.4,-72.7,277.7,98,94,2.48,CL,1727212379
220,nova sintra,14.8667,-24.7167,300.68,83,100,7.05,CV,1727212380
221,tiksi,71.6872,128.8694,272.89,94,100,6.73,RU,1727212381
222,fort bragg,35.139,-79.006,303.0,67,75,5.14,US,1727212382
223,atafu village,-8.5421,-172.5159,301.46,79,74,6.19,TK,1727212383
224,severo-yeniseyskiy,60.3725,93.0408,274.05,95,98,4.72,RU,1727212385
225,puruliya,23.3333,86.3667,297.58,94,96,1.62,IN,1727212386
226,al qusayr,34.5091,36.5798,295.58,65,0,0.34,SY,1727212388
227,undurkhaan,47.3194,110.6556,280.69,70,1,2.55,MN,1727212389
228,mogadishu,2.0371,45.3438,298.31,80,69,8.71,SO,1727212390
229,saint-philippe,-21.3585,55.7679,294.45,81,30,4.9,RE,1727212391
230,ulladulla,-35.35,150.4667,292.59,51,100,3.99,AU,1727212392
231,al ghayzah,16.2079,52.176,299.31,80,1,2.33,YE,1727212393
232,ntoum,0.3833,9.7833,297.26,94,94,1.53,GA,1727212395
233,lamu,-2.2717,40.902,297.91,81,69,6.39,KE,1727212396
234,patong,7.8961,98.2966,296.23,80,100,1.48,TH,1727212397
235,illizi,26.4833,8.4667,307.3,20,91,1.58,DZ,1727212398
236,zharkent,44.1628,80.0,291.09,63,100,3.63,KZ,1727212399
237,campbellton,48.0075,-66.6727,288.28,69,5,3.23,CA,1727212400
238,nadi,-17.8,177.4167,297.15,64,75,8.23,FJ,1727212401
239,al khums,32.6486,14.2619,297.76,70,23,2.81,LY,1727212402
240,mount gambier,-37.8333,140.7667,283.11,84,100,3.65,AU,1727212404
241,kirakira,-10.4544,161.9205,300.57,80,18,4.27,SB,1727212405
242,skelleftea,64.7507,20.9528,284.35,100,100,2.06,SE,1727212406
243,ancud,-41.8697,-73.8203,281.46,60,57,5.14,CL,1727212407
244,egilsstadir,65.2653,-14.3948,274.43,99,100,2.76,IS,1727212408
245,olavarria,-36.8927,-60.3225,290.92,50,55,3.38,AR,1727212409
246,yasnogorsk,54.4803,37.6975,284.73,35,97,3.48,RU,1727212164
247,udachny,66.4167,112.4,278.67,71,81,6.91,RU,1727212411
248,big bend,-26.8167,31.9333,291.24,78,13,1.06,SZ,1727212413
249,amursk,50.2261,136.8994,281.66,90,100,0.65,RU,1727212414
250,berdigestyakh,62.0989,126.6992,276.53,93,95,2.32,RU,1727212415
251,dudinka,69.4058,86.1778,277.67,82,88,6.5,RU,1727212416
252,papatowai,-46.5619,169.4708,281.31,67,95,3.98,NZ,1727212417
253,northam,51.0333,-4.2167,285.16,91,100,3.25,GB,1727212418
254,acarlar,37.8241,27.7442,293.14,64,0,2.06,TR,1727212419
255,lambarene,-0.7001,10.2406,297.29,94,65,2.29,GA,1727212420
256,begusarai,25.4167,86.1333,301.41,75,91,3.33,IN,1727212422
257,igarka,67.4667,86.5833,275.43,97,100,6.29,RU,1727212423
258,prabumulih,-3.45,104.25,296.57,97,90,0.97,ID,1727212424
259,clodomira,-27.5744,-64.1311,302.07,34,0,5.65,AR,1727212425
260,prince albert,53.2001,-105.7677,297.7,37,41,7.79,CA,1727212426
261,kailua-kona,19.6406,-155.9956,302.75,67,20,5.14,US,1727212427
262,st. john's,47.5649,-52.7093,284.25,89,100,7.6,CA,1727212428
263,longyearbyen,78.2186,15.6401,269.06,80,20,0.51,SJ,1727212429
264,pachino,36.7186,15.0907,295.73,70,37,3.67,IT,1727212431
265,namie,37.4833,141.0,290.36,89,100,3.49,JP,1727212432
266,santa cruz,-17.8,-63.1667,307.85,41,0,6.69,BO,1727212433
267,malindi,-3.2175,40.1191,298.12,78,35,6.67,KE,1727212434
268,hithadhoo,-0.6,73.0833,301.26,74,82,5.64,MV,1727212435
269,arraial do cabo,-22.9661,-42.0278,297.07,83,0,10.29,BR,1727212436
270,port isabel,26.0734,-97.2086,304.3,75,40,4.63,US,1727212437
271,enewetak,11.3474,162.3373,302.02,75,94,5.33,MH,1727212438
272,labytnangi,66.6572,66.4183,274.91,70,92,8.55,RU,1727212440
273,tamuin,21.9833,-98.75,304.22,60,72,2.09,MX,1727212441
274,thenkasi,8.9667,77.3,296.72,93,100,3.54,IN,1727212442
275,okha,53.5739,142.9478,281.98,81,90,2.19,RU,1727212443
276,taltal,-25.4,-70.4833,290.86,67,27,3.17,CL,1727212444
277,qaqortoq,60.7167,-46.0333,277.43,93,32,1.94,GL,1727212445
278,codrington,-38.2667,141.9667,283.29,86,100,5.15,AU,1727212446
279,eagleton village,35.7951,-83.9318,303.85,54,75,7.72,US,1727212447
280,muisne,0.6,-80.0333,297.62,78,89,5.16,EC,1727212449
281,hotan,37.0997,79.9269,296.04,21,0,0.74,CN,1727212450
282,pampa,35.5362,-100.9599,302.17,32,0,7.2,US,1727212451
283,tual,-5.6667,132.75,300.08,80,100,3.97,ID,1727212452
284,freetown,8.484,-13.2299,297.39,94,100,3.74,SL,1727212453
285,shubarkuduk,49.1447,56.4872,283.39,38,100,5.42,KZ,1727212454
286,lake city,30.1897,-82.6393,305.76,43,40,2.57,US,1727212455
287,oranjemund,-28.55,16.4333,285.8,89,28,2.3,NA,1727212457
288,kenitra,34.261,-6.5802,291.57,73,49,2.02,MA,1727212458
289,tadine,-21.55,167.8833,296.71,69,9,5.5,NC,1727212459
290,bingol,38.8847,40.4939,289.65,57,92,1.9,TR,1727212460
291,ribeira grande,38.5167,-28.7,297.47,92,100,7.15,PT,1727212461
292,barnard castle,54.5415,-1.919,282.61,90,7,2.81,GB,1727212462
293,veraval,20.9,70.3667,299.75,83,64,6.48,IN,1727212463
294,morinville,53.8001,-113.652,298.44,36,8,1.3,CA,1727212225
295,new norfolk,-42.7826,147.0587,283.1,70,95,2.62,AU,1727212466
296,kapa'a,22.0752,-159.319,302.33,67,40,6.17,US,1727212407
297,grand-popo,6.2804,1.8225,298.83,87,92,3.56,BJ,1727212468
298,pauini,-7.7136,-66.9764,310.6,27,88,1.94,BR,1727212469
299,mancio lima,-7.6142,-72.8958,306.34,44,40,3.3,BR,1727212470
300,imperatriz,-5.5264,-47.4917,306.53,33,57,2.46,BR,1727212471
301,piedmont,37.8244,-122.2316,306.14,49,20,8.05,US,1727212472
302,kupang,-10.1667,123.5833,298.47,94,11,0.51,ID,1727212473
303,newman,37.3138,-121.0208,312.87,11,0,1.57,US,1727212475
304,el granada,37.5027,-122.4694,301.48,64,20,5.66,US,1727212476
305,cambria,35.5641,-121.0808,309.39,73,40,2.49,US,1727212477
306,winnemucca,40.973,-117.7357,302.18,17,0,1.54,US,1727212330
307,bayganin,48.6947,55.8742,284.4,36,100,6.19,KZ,1727212479
308,touros,-5.1989,-35.4608,297.81,75,0,7.0,BR,1727212480
309,thames,-37.1333,175.5333,285.9,61,24,3.78,NZ,1727212203
310,song cau,13.45,109.2167,297.52,91,37,1.02,VN,1727212482
311,aras-asan,8.8908,126.3033,298.31,89,100,2.11,PH,1727212484
312,shengli,37.4564,118.4856,290.73,61,0,1.78,CN,1727212485
313,tintafor,8.6267,-13.215,297.57,94,100,3.74,SL,1727212486
314,gornopravdinsk,60.05,69.9,273.99,81,38,4.12,RU,1727212487
315,puerto santa,-8.9906,-78.6456,291.53,83,69,4.86,PE,1727212488
316,katsuura,35.1333,140.3,295.16,73,100,10.01,JP,1727212489
317,tolanaro,-25.0319,46.9987,293.59,92,100,5.04,MG,1727212490
318,arenapolis,-14.4503,-56.8461,311.29,13,41,1.91,BR,1727212491
319,altamira,-3.2033,-52.2064,300.67,67,91,0.93,BR,1727212493
320,erenhot,43.6475,111.9767,284.56,74,69,2.75,CN,1727212494
321,huntington,38.4193,-82.4452,297.11,87,0,2.24,US,1727212495
322,villa yapacani,-17.4,-63.8333,312.53,15,0,4.43,BO,1727212496
323,cockburn town,21.4612,-71.1419,302.23,75,8,5.63,TC,1727212497
324,el abiodh sidi cheikh,32.893,0.5484,298.15,46,88,4.01,DZ,1727212498
325,taunggyi,20.7833,97.0333,292.21,97,100,0.94,MM,1727212499
326,ouarzazat,30.9189,-6.8934,299.31,29,0,5.14,MA,1727212500
327,isafjordur,66.0755,-23.124,273.07,82,94,7.05,IS,1727212502
328,sassandra,4.95,-6.0833,297.4,91,78,2.52,CI,1727212503
329,los chavez,34.727,-106.7384,303.75,19,2,0.89,US,1727212504
330,mananjary,-21.2167,48.3333,293.67,92,53,0.57,MG,1727212505
331,rochester,43.1548,-77.6156,290.5,90,100,6.17,US,1727212508
332,rio claro,-22.4114,-47.5614,304.15,20,2,2.94,BR,1727212509
333,manokwari,-0.8667,134.0833,299.12,70,5,1.03,ID,1727212510
334,hinatuan,8.3722,126.3342,296.68,96,100,2.2,PH,1727212513
335,stephenville,32.2207,-98.2023,304.34,50,0,1.54,US,1727212515
336,shanhecun,44.7,127.2,286.65,76,99,4.2,CN,1727212516
337,chonchi,-42.6128,-73.8092,282.66,66,49,2.97,CL,1727212517
338,siwa oasis,29.2041,25.5195,302.74,34,0,2.68,EG,1727212518
339,paracuru,-3.41,-39.0306,298.35,83,17,5.2,BR,1727212519
340,turpan,42.9333,89.1667,299.88,30,98,0.67,CN,1727212520
341,mthatha,-31.5889,28.7844,288.46,94,26,1.03,ZA,1727212521
342,marquette,46.5333,-87.6335,290.46,75,1,2.68,US,1727212522
343,new amsterdam,6.25,-57.5167,301.83,67,95,2.93,GY,1727212524
344,divrigi,39.371,38.1137,289.45,64,81,0.23,TR,1727212525
345,tarhuna,32.435,13.6332,295.18,75,29,3.81,LY,1727212526
346,timimoun,29.2639,0.231,303.49,43,93,3.64,DZ,1727212527
347,jiayuguan,39.8167,98.3,290.58,46,48,1.49,CN,1727212528
348,bali,-8.5,115.0,296.24,91,40,1.8,ID,1727212529
349,inari,68.906,27.0288,280.13,94,100,3.63,FI,1727212530
350,susuman,62.7833,148.1667,270.48,62,36,1.88,RU,1727212531
351,hoeyang,38.7103,127.5983,285.5,87,1,0.95,KP,1727212533
352,minot air force base,48.4209,-101.3391,298.25,31,0,4.63,US,1727212534
353,la'ie,21.6477,-157.9253,302.81,71,97,3.13,US,1727212535
354,fort st. john,56.2499,-120.8529,287.06,58,100,3.6,CA,1727212536
355,iquitos,-3.7481,-73.2472,309.17,46,40,1.54,PE,1727212537
356,hami,42.8,93.45,293.21,29,83,4.37,CN,1727212538
357,tukrah,32.5341,20.5791,298.86,77,12,1.22,LY,1727212539
358,mouila,-1.8685,11.0559,297.65,91,93,1.24,GA,1727212540
359,puerto baquerizo moreno,-0.9,-89.6,295.7,73,40,6.69,EC,1727212543
360,dahme,51.8667,13.4333,286.1,86,75,5.81,DE,1727212544
361,sao vicente,-23.9631,-46.3919,295.34,26,55,0.45,BR,1727212545
362,chernyshevskiy,63.0128,112.4714,277.71,97,66,2.22,RU,1727212546
363,borivli,19.2333,72.85,299.1,94,100,4.12,IN,1727212547
364,saint-francois,46.4154,3.9054,287.84,82,0,2.06,FR,1727212549
365,qarazhal,48.0078,70.7903,282.2,37,100,4.71,KZ,1727212550
366,izazi,-7.2,35.7333,297.11,46,51,2.16,TZ,1727212551
367,kismayo,-0.3582,42.5454,298.03,76,79,6.8,SO,1727212552
368,la ronge,55.1001,-105.2842,293.29,56,75,5.14,CA,1727212553
369,campo gallo,-26.5833,-62.85,305.45,31,0,2.59,AR,1727212554
370,pamandzi,-12.7967,45.2794,298.03,83,0,4.63,YT,1727212555
371,semey,50.4111,80.2275,280.96,40,5,2.48,KZ,1727212556
372,kingston,17.997,-76.7936,302.68,82,100,3.12,JM,1727212558
373,xinzhou,38.4092,112.7333,287.58,83,56,0.73,CN,1727212559
374,obudu,6.6674,9.1716,295.29,97,99,1.96,NG,1727212560
375,markivka,49.5229,39.5705,284.63,26,0,3.54,UA,1727212561
376,acapulco de juarez,16.8634,-99.8901,298.05,88,100,7.72,MX,1727212440
377,polyarnyy,69.1989,33.4478,280.9,88,100,9.02,RU,1727212564
378,al muwayh,22.4333,41.7583,302.65,16,0,3.31,SA,1727212566
379,constitucion,-35.3333,-72.4167,285.71,58,0,7.63,CL,1727212567
380,phan rang-thap cham,11.5667,108.9833,297.11,93,28,1.52,VN,1727212568
381,sao miguel,-5.4667,-35.3667,297.57,75,2,7.3,BR,1727212569
382,naracoorte,-36.9579,140.7383,284.27,97,100,3.75,AU,1727212570
383,fort-shevchenko,44.5086,50.263,293.76,62,86,8.89,KZ,1727212571
384,estremoz,38.8443,-7.5859,289.55,90,100,2.47,PT,1727212572
385,moyynkum,44.2914,72.9469,290.91,38,70,4.27,KZ,1727212574
386,hobyo,5.3505,48.5268,298.16,82,8,11.02,SO,1727212575
387,wangon,-7.5161,109.0539,297.73,93,100,0.79,ID,1727212576
388,sferracavallo,42.726,12.0956,292.25,95,100,2.73,IT,1727212577
389,camana,-16.6228,-72.7111,290.18,80,17,3.87,PE,1727212578
390,gadzhiyevo,69.2551,33.3362,280.84,89,100,8.22,RU,1727212579
391,karratha,-20.7377,116.8463,296.34,76,0,1.77,AU,1727212580
392,pandan,14.0453,124.1694,300.11,89,100,2.43,PH,1727212581
393,kodinsk,58.6881,99.1844,275.72,96,71,2.36,RU,1727212583
394,anadyr,64.75,177.4833,280.43,87,0,4.0,RU,1727212584
395,kuta,-8.7233,115.1723,299.12,94,20,1.03,ID,1727212585
396,koraput,18.8167,82.7167,294.5,95,100,0.63,IN,1727212586
397,nadym,65.5333,72.5167,273.93,96,100,12.14,RU,1727212590
398,nema,57.5067,50.5011,277.71,64,39,2.41,RU,1727212591
399,pauri,30.15,78.7833,292.22,91,0,1.19,IN,1727212592
400,santiago papasquiaro,25.046,-105.4208,302.04,37,13,2.26,MX,1727212593
401,ji'an,27.1172,114.9793,294.43,91,97,0.42,CN,1727212594
402,meadow lake,34.8014,-106.5436,302.48,19,5,2.5,US,1727212595
403,nhamunda,-2.1861,-56.7131,303.28,58,86,1.62,BR,1727212596
404,boyolangu,-8.1181,111.8935,296.52,96,97,0.21,ID,1727212599
405,maintirano,-18.0667,44.0167,297.41,78,11,3.11,MG,1727212600
406,iranshahr,27.2025,60.6848,304.89,29,6,0.1,IR,1727212601
407,la sarre,48.8002,-79.1996,286.51,97,100,3.0,CA,1727212602
408,greci,45.1833,28.2333,290.26,73,4,2.88,RO,1727212604
409,betio village,1.358,172.9211,302.17,67,41,3.13,KI,1727212606
410,port douglas,-16.4833,145.4667,295.43,85,58,2.48,AU,1727212607
411,sangola,17.4333,75.2,296.42,98,100,5.0,IN,1727212608
412,afif,23.9065,42.9172,300.82,14,0,4.29,SA,1727212609
413,laguna,38.421,-121.4238,309.88,24,0,2.06,US,1727212611
414,namibe,-15.1961,12.1522,291.93,83,97,1.44,AO,1727212612
415,kirensk,57.7853,108.1119,281.63,94,99,1.13,RU,1727212614
416,vilyuchinsk,52.9306,158.4028,283.3,80,100,3.25,RU,1727212615
417,lospalos,-8.5186,127.0025,294.09,97,82,1.09,TL,1727212616
418,port saint john's,-31.6229,29.5448,294.52,81,22,6.99,ZA,1727212617
419,akureyri,65.6835,-18.0878,275.11,93,75,7.2,IS,1727212618
420,celestun,20.8667,-90.4,303.08,69,32,6.55,MX,1727212619
421,yen vinh,18.6667,105.6667,295.13,86,100,1.08,VN,1727212620
422,east end,34.5507,-92.341,302.7,46,95,3.61,US,1727212621
423,greymouth,-42.4667,171.2,282.81,63,62,0.09,NZ,1727212623
424,bobrov,51.0961,40.0333,283.13,31,27,3.15,RU,1727212624
425,yatou,37.15,122.3833,289.73,89,0,1.48,CN,1727212625
426,shache,38.4167,77.2406,295.81,26,0,2.69,CN,1727212626
427,springs,-26.25,28.4,289.53,72,21,3.49,ZA,1727212627
428,villa gesell,-37.2639,-56.973,285.56,71,100,5.21,AR,1727212628
429,braganca,-1.0536,-46.7656,299.2,77,12,2.71,BR,1727212629
430,suva,-18.1416,178.4415,296.86,78,75,2.57,FJ,1727212630
431,taoudenni,22.6783,-3.9836,308.19,23,100,5.6,ML,1727212632
432,hadibu,12.65,54.0333,298.7,82,43,6.27,YE,1727212633
433,margate,51.3813,1.3862,287.52,78,100,5.51,GB,1727212634
434,calama,-22.4667,-68.9333,296.42,4,0,9.26,CL,1727212635
435,la passe,45.5549,-0.8967,289.58,93,3,4.45,FR,1727212636
436,velez,6.0134,-73.6735,288.68,90,67,1.59,CO,1727212637
437,makar'yev,57.8797,43.8069,280.84,55,96,2.44,RU,1727212638
438,rikaze,29.25,88.8833,283.5,66,95,1.48,CN,1727212639
439,sisimiut,66.9395,-53.6735,279.75,68,78,0.79,GL,1727212641
440,el negrito,15.3167,-87.7,303.93,64,100,1.3,HN,1727212642
441,kuvshinovo,57.0295,34.1725,284.48,67,100,2.68,RU,1727212643
442,yuzhno-kurilsk,44.0306,145.8556,285.47,80,37,4.39,RU,1727212644
443,cifuentes,22.645,-80.0461,302.32,74,75,1.54,CU,1727212645
444,al qusiyah,27.4402,30.8184,300.0,32,0,6.48,EG,1727212646
445,isangel,-19.55,169.2667,296.93,78,45,5.96,VU,1727212648
446,penzance,50.1186,-5.5371,286.53,90,100,3.17,GB,1727212649
447,bardai,11.65,7.2333,296.04,79,63,2.28,NG,1727212650
448,tarnogskiy gorodok,60.4997,43.5761,278.89,73,54,2.47,RU,1727212651
449,sofifi,0.7349,127.576,299.74,80,98,1.2,ID,1727212652
450,fendou,46.65,124.8667,284.8,91,100,3.54,CN,1727212653
451,beloyarskiy,63.7119,66.6722,274.45,67,96,7.06,RU,1727212654
452,mooloolaba,-26.6833,153.1167,289.98,95,38,2.82,AU,1727212655
453,fisterra,42.9049,-9.2629,290.23,95,100,5.71,ES,1727212657
454,smidovich,48.6,133.8167,284.23,89,100,3.16,RU,1727212658
455,gibsons,49.3997,-123.5027,295.12,76,98,1.91,CA,1727212659
456,la gi,10.6667,107.7833,298.25,88,83,1.78,VN,1727212660
457,kimberley,-28.7323,24.7623,290.98,16,3,4.63,ZA,1727212661
458,naze,28.3667,129.4833,297.66,88,93,3.96,JP,1727212662
459,alaghsas,17.0187,8.0168,309.14,15,6,3.34,NE,1727212663
460,bani walid,31.7566,13.9942,297.0,68,93,5.18,LY,1727212664
461,yanykurgan,43.915,67.2481,293.28,30,71,3.94,KZ,1727212667
462,hammerfest,70.6634,23.6821,280.4,87,75,6.17,NO,1727212668
463,inyonga,-6.7167,32.0667,298.93,30,94,4.37,TZ,1727212669
464,tralee,52.2704,-9.7026,283.25,90,100,1.44,IE,1727212671
465,jabor,5.921,169.6434,301.65,72,79,2.91,MH,1727212672
466,malango,-2.9627,119.9001,291.83,97,79,1.02,ID,1727212673
467,choibalsan,48.0667,114.5,280.32,69,6,3.3,MN,1727212674
468,belgrade,44.804,20.4651,290.96,75,0,3.6,RS,1727212675
469,les avirons,-21.2418,55.3394,294.2,68,40,3.6,RE,1727212676
470,saint-pierre,-21.3393,55.4781,295.97,68,40,3.6,RE,1727212677
471,fukuecho,32.6881,128.8419,296.7,85,100,3.36,JP,1727212678
472,kenora,49.8167,-94.4337,289.69,72,75,1.03,CA,1727212679
473,farmville,37.3021,-78.3919,292.28,93,100,1.96,US,1727212681
474,al jawf,29.5,38.75,298.95,33,0,4.69,SA,1727212682
475,breves,-1.6822,-50.4803,304.26,51,27,3.12,BR,1727212683
476,mawu,34.4307,104.9176,284.03,94,86,2.29,CN,1727212684
477,bechar,31.6167,-2.2167,296.33,73,20,3.09,DZ,1727212685
478,zouerate,22.7187,-12.4521,309.55,26,47,5.08,MR,1727212686
479,north elba,44.2434,-73.9543,290.4,57,100,2.42,US,1727212687
480,klaksvik,62.2266,-6.589,279.03,65,100,6.51,FO,1727212688
481,rongelap,11.1635,166.8941,301.58,76,27,4.35,MH,1727212690
482,inverell,-29.7833,151.1167,287.68,81,90,2.24,AU,1727212691
483,saint-joseph,-21.3667,55.6167,295.36,79,18,4.7,RE,1727212692
484,wabash,40.7978,-85.8205,298.39,72,67,6.08,US,1727212693
485,tamanrasset,22.785,5.5228,301.1,28,40,2.06,DZ,1727212694
486,hell-ville,-13.4,48.2667,298.76,67,84,4.46,MG,1727212695
487,port alfred,-33.5906,26.891,291.03,92,88,1.79,ZA,1727212696
488,kabansk,52.0486,106.6528,282.43,68,16,2.79,RU,1727212698
489,bontang,0.1333,117.5,299.9,84,74,1.96,ID,1727212699
490,zhanibek,49.4167,46.85,283.51,37,0,4.67,KZ,1727212700
491,tomatlan,19.9333,-105.25,303.92,76,89,5.7,MX,1727212701
492,yuncheng,35.0231,110.9928,292.43,58,69,1.68,CN,1727212702
493,alpena,45.0617,-83.4327,292.33,96,100,4.63,US,1727212703
494,ingeniero luis a. huergo,-39.0833,-67.2333,293.09,20,7,6.76,AR,1727212704
495,gdov,58.7406,27.8122,288.26,74,100,4.85,RU,1727212705
496,nuku'alofa,-21.1333,-175.2,296.34,83,75,4.12,TO,1727212707
497,praia da vitoria,38.7333,-27.0667,298.29,78,40,6.92,PT,1727212708
498,weno,7.4515,151.8468,301.12,83,100,4.12,FM,1727212709
499,afaahiti,-17.75,-149.2833,297.95,78,59,2.88,PF,1727212710
500,sanica,44.6142,16.6411,288.43,87,100,2.31,BA,1727212711
501,carneys point,39.7112,-75.4702,293.87,71,99,1.34,US,1727212712
502,olinda,-8.0089,-34.8553,299.0,73,40,5.66,BR,1727212713
503,natividad,16.0443,120.7987,297.55,89,89,1.75,PH,1727212714
504,horta,38.5333,-28.6333,297.05,92,100,7.15,PT,1727212716
505,tengrela,10.4869,-6.4097,296.46,96,90,2.13,CI,1727212717
506,mahanje,-9.9333,35.3333,291.43,69,53,1.33,TZ,1727212718
507,tsumeb,-19.2333,17.7167,298.46,37,67,3.86,NA,1727212719
508,ayutla,20.1167,-104.3333,301.49,36,43,4.28,MX,1727212720
509,benguela,-12.5763,13.4055,294.98,82,91,2.95,AO,1727212721
510,ellsworth,44.5434,-68.4195,290.01,66,0,3.09,US,1727212723
511,tete,-16.1564,33.5867,296.2,49,0,2.06,MZ,1727212724
512,wau,7.7029,27.9953,295.19,89,75,1.2,SS,1727212725
513,pasni,25.2631,63.471,299.66,87,43,3.95,PK,1727212726
514,chichicastenango,14.9333,-91.1167,292.09,91,100,0.4,GT,1727212727
515,gulf shores,30.246,-87.7008,303.71,69,0,3.09,US,1727212728
516,el alto,-4.2714,-81.2147,292.72,77,22,8.64,PE,1727212729
517,box elder,41.5005,-112.8764,293.71,40,0,1.52,US,1727212731
518,port hueneme,34.1478,-119.1951,300.86,71,0,3.09,US,1727212732
519,kerikeri,-35.2268,173.9474,287.07,58,64,3.1,NZ,1727212733
520,trujillo,-8.116,-79.03,291.13,88,20,4.63,PE,1727212734
521,coahuayana de hidalgo,18.7,-103.6583,302.34,81,90,2.07,MX,1727212735
522,neiafu,-18.65,-173.9833,299.53,65,40,4.12,TO,1727212736
523,papao,-17.75,-149.55,301.97,74,26,1.71,PF,1727212737
524,taroa,8.7058,171.2275,301.29,72,9,1.56,MH,1727212739
525,happy valley-goose bay,53.3168,-60.3315,287.32,54,40,1.54,CA,1727212740
526,pullman,46.7313,-117.1796,301.95,35,0,5.81,US,1727212556
527,teocaltiche,21.4333,-102.5833,302.07,34,45,5.02,MX,1727212742
528,itamaraca,-7.7478,-34.8256,297.68,75,15,4.41,BR,1727212743
529,ambodivoara,-14.3397,49.9826,292.37,85,22,1.1,MG,1727212744
530,benghazi,32.1167,20.0667,299.34,74,5,3.22,LY,1727212745
531,mossel bay,-34.1831,22.146,288.11,91,100,2.22,ZA,1727212747
532,esquel,-42.9,-71.3167,279.0,66,32,4.14,AR,1727212748
533,mo i rana,66.3128,14.1428,280.55,91,75,0.0,NO,1727212480
534,rawson,-43.3002,-65.1023,289.31,21,0,5.66,AR,1727212750
535,minas de marcona,-15.2119,-75.1103,288.22,65,0,8.36,PE,1727212751
536,gwanda,-20.9333,29.0,289.78,51,1,2.36,ZW,1727212752
537,motygino,58.1831,94.7592,276.58,86,96,3.82,RU,1727212753
538,dzuunharaa,48.8523,106.4579,281.15,64,6,2.22,MN,1727212754
539,chibougamau,49.9168,-74.3659,287.94,88,100,4.63,CA,1727212755
540,paarl,-33.7338,18.9752,286.67,82,100,0.4,ZA,1727212758
541,kuala belait,4.5833,114.1833,299.07,87,99,0.56,BN,1727212759
542,zhumadian,32.9794,114.0294,291.64,61,100,1.68,CN,1727212761
543,shilin,24.8188,103.3324,288.77,92,44,0.68,CN,1727212762
544,rocha,-34.4833,-54.3333,285.23,92,100,5.95,UY,1727212764
545,bengkulu,-3.8004,102.2655,297.45,92,100,1.21,ID,1727212765
546,belize city,17.4995,-88.1976,308.16,52,40,4.12,BZ,1727212766
547,nova olimpia,-14.7972,-57.2881,312.95,12,37,1.08,BR,1727212767
548,zaozersk,69.4005,32.4476,280.5,90,100,5.97,RU,1727212770
549,zuni pueblo,35.0725,-108.8506,298.49,16,0,1.38,US,1727212771
550,bikenibeu village,1.3673,173.1241,302.13,70,20,2.06,KI,1727212772
551,kone,-21.0595,164.8658,297.39,63,1,2.1,NC,1727212773
552,vila velha,-20.3297,-40.2925,298.12,85,40,6.17,BR,1727212776
553,pitimbu,-7.4706,-34.8086,297.99,75,12,5.67,BR,1727212777
554,paraipaba,-3.4394,-39.1483,297.91,81,18,3.74,BR,1727212778
555,menongue,-14.6585,17.691,293.5,28,77,2.62,AO,1727212779
556,brisas de zicatela,15.8369,-97.0419,297.44,94,100,3.09,MX,1727212780
557,cameron,26.117,-97.5169,305.16,80,40,5.14,US,1727212781
558,santanyi,39.3546,3.1291,295.95,76,100,3.53,ES,1727212783
559,mhamid,29.82,-5.72,302.9,38,47,4.2,MA,1727212784
560,primero de mayo,-32.2552,-58.4228,287.46,94,100,6.45,AR,1727212785
561,dampit,-8.2116,112.7493,293.88,98,74,1.27,ID,1727212786
562,pangai,-19.8,-174.35,298.21,69,75,5.66,TO,1727212787
563,morehead city,34.7229,-76.726,299.27,74,20,3.6,US,1727212788
564,nampula,-15.1165,39.2666,293.12,68,0,4.12,MZ,1727212789
565,sur,22.5667,59.5289,302.82,57,100,3.57,OM,1727212791
566,gaigeturi,33.4644,126.3183,296.18,88,75,3.09,KR,1727212792
567,beitbridge,-22.2167,30.0,293.96,44,46,2.25,ZW,1727212793
568,cumana,10.4635,-64.1775,303.44,69,34,2.85,VE,1727212794
569,khandyga,62.6667,135.6,273.92,83,100,1.61,RU,1727212795
570,sambava,-14.2667,50.1667,294.79,77,7,4.19,MG,1727212796
571,rock springs,41.5875,-109.2029,297.84,27,0,3.6,US,1727212498
572,sept-iles,50.2001,-66.3821,288.44,69,20,3.6,CA,1727212799
573,iglino,54.8324,56.4126,276.92,61,0,0.86,RU,1727212800
574,sao mateus,-18.7161,-39.8589,296.96,76,0,3.69,BR,1727212801
575,potosi,-19.5836,-65.7531,289.63,29,20,7.72,BO,1727212802
576,hassi messaoud,31.6804,6.0729,299.07,65,0,2.06,DZ,1727212803
577,sabang,5.8933,95.3214,301.68,70,100,2.65,ID,1727212804
578,francisco sa,-16.4758,-43.4883,301.7,21,0,4.97,BR,1727212805
579,floresta,-8.6011,-38.5686,302.42,40,79,11.11,BR,1727212807
580,sao joao da barra,-21.6403,-41.0511,297.2,85,0,8.79,BR,1727212808
